[
    {
        "Name": "老爺大酒店",
        "City": "臺北市",
        "District": "中山區",
        "Address": "104臺北市中山區中山北路2段37之1號",
        "Tel": "02-25423266",
        "Price": "NT$8800~58000",
        "Lat": 25.05407,
        "Lng": 121.52297
    },
    {
        "Name": "太魯閣晶英酒店",
        "City": "花蓮縣",
        "District": "秀林鄉",
        "Address":"972花蓮縣秀林鄉富世村天祥路18號",
        "Tel":"03-8691-155",
        "Price":"NT$10000~100000",
        "Lat": 24.18167858134185,
        "Lng": 121.49411634077357
    },
    {
        "Name": "花蓮翰品酒店",
        "City": "花蓮縣",
        "District": "花蓮市",
        "Address":"970花蓮縣花蓮市美崙區永興路2號",
        "Tel":"03-8235388",
        "Price":"NT$9000~45000",
        "Lat": 23.991904618722696, 
        "Lng": 121.62668532542389
    },
    {
        "Name": "長榮桂冠酒店(台中)",
        "City": "臺中市",
        "District": "西屯區",
        "Address":"407臺中市西屯區臺灣大道二段666號",
        "Tel":"04-23139988",
        "Price":"NT$8500~90000",
        "Lat": 24.15908017790126, 
        "Lng": 120.65714076193673
    },
    {
        "Name": "澎湖福朋喜來登酒店",
        "City": "澎湖縣",
        "District": "馬公市",
        "Address":"880澎湖縣馬公市新店路197號",
        "Tel":"06-9266288",
        "Price":"NULL",
        "Lat": 23.568085332325595,  
        "Lng": 119.57574308123267
    },
    {
        "Name": "涵碧樓大飯店",
        "City": "南投縣",
        "District": "魚池鄉",
        "Address":"555南投縣魚池鄉水社村中興路142號",
        "Tel":"049-285-5311",
        "Price":"NT$15600~88400",
        "Lat": 23.86328995815676, 
        "Lng": 120.9085610812393
    },
    {
        "Name": "日暉國際渡假村",
        "City": "臺東縣",
        "District": "池上鄉",
        "Address":"958臺東縣池上鄉新興村新興107號",
        "Tel":"089-861111",
        "Price":"NT$24200~88000",
        "Lat": 23.105746558146368, 
        "Lng": 121.1987489407491
    },
    {
        "Name": "尊爵天際大飯店",
        "City": "桃園市",
        "District": "蘆竹區",
        "Address":"338桃園市蘆竹區南崁路1段108號",
        "Tel":"03-2121001",
        "Price":"NT$6500~19800",
        "Lat": 25.05215835453104, 
        "Lng": 121.28814683893991
    },
    {
        "Name": "理想大地渡假飯店",
        "City": "花蓮縣",
        "District": "壽豐鄉",
        "Address":"974花蓮縣壽豐鄉共和村1鄰理想路1號",
        "Tel":"03-8656789",
        "Price":"NT$10560~96800",
        "Lat": 23.943044437448872, 
        "Lng": 121.5123701074073
    },
    {
        "Name": "墾丁夏都沙灘酒店",
        "City": "屏東縣",
        "District": "恆春鎮",
        "Address":"946屏東縣恆春鎮墾丁路451號",
        "Tel":"08-8862345",
        "Price":"NT$6600~56600",
        "Lat": 22.103454095045016, 
        "Lng": 120.81184397537554
    },
    {
        "Name": "大地酒店",
        "City": "臺北市",
        "District": "北投區",
        "Address":"112臺北市北投區奇岩路1號",
        "Tel":"02-55518888",
        "Price":"NT$13800~60000",
        "Lat": 25.250820241891457,  
        "Lng": 121.43614079758575
    },
    {
        "Name": "晶華酒店",
        "City": "臺北市",
        "District": "中山區",
        "Address":"104臺北市中山區中山北路2段39巷3號",
        "Tel":"02-25238000",
        "Price":"NT$16000~180000",
        "Lat": 25.05441417058589,  
        "Lng": 121.52418964795548
    },
    {
        "Name": "劍湖山渡假大飯店",
        "City": "雲林縣",
        "District": "古坑鄉",
        "Address":"646雲林縣古坑鄉永光村大湖口67-8號",
        "Tel":"05-5828111",
        "Price":"NT$4000~12000",
        "Lat": 23.615105897289784, 
        "Lng": 120.57702733097803
    },
    {
        "Name": "高雄福華大飯店",
        "City": "高雄市",
        "District": "新興區",
        "Address":"800高雄市新興區七賢一路311號",
        "Tel":"07-2362323",
        "Price":"NT$7000~18500",
        "Lat": 22.634113920428728, 
        "Lng": 120.30824688306616
    },
    {
        "Name": "台南遠東香格里拉",
        "City": "臺南市",
        "District": "東區",
        "Address":"701臺南市東區大學路西段89號",
        "Tel":"06-7028888",
        "Price":"NT$20000~150000",
        "Lat": 22.996860699147376, 
        "Lng": 120.21442826587457
    },
    {
        "Name": "台北遠東香格里拉",
        "City": "臺北市",
        "District": "大安區",
        "Address":"106臺北市大安區敦化南路2段201號",
        "Tel":"02-23788888",
        "Price":"NT$18700~114900",
        "Lat": 25.02667804513957, 
        "Lng": 121.54929106880839
    },
    {
        "Name": "知本老爺大酒店",
        "City": "臺東縣",
        "District": "卑南鄉",
        "Address":"954臺東縣卑南鄉溫泉村龍泉路113巷23號",
        "Tel":"089-510-666",
        "Price":"NT$10200~30400",
        "Lat": 25.054311631926538, 
        "Lng": 121.52302301604755
    },
    {
        "Name": "遠雄悅來大飯店",
        "City": "花蓮縣",
        "District": "壽豐鄉",
        "Address":"974花蓮縣壽豐鄉鹽寮村山嶺18號",
        "Tel":"03-8123-999",
        "Price":"NT$7200~50000",
        "Lat": 23.90848574940319, 
        "Lng": 121.59666793891297
    },
    {
        "Name": "大倉久和大飯店",
        "City": "臺北市",
        "District": "中山區",
        "Address":"104臺北市中山區南京東路1段9號",
        "Tel":"02-25231111",
        "Price":"NT$50000~160000",
        "Lat": 25.052978232463854, 
        "Lng": 121.5232604171527
    },
    {
        "Name": "台北六福萬怡酒店",
        "City": "臺北市",
        "District": "南港區",
        "Address":"115臺北市南港區忠孝東路七段359號7-30樓",
        "Tel":"02-21716565",
        "Price":"NT$12000~100000",
        "Lat": 25.053089053128414, 
        "Lng": 121.60649422730314
    },
    {
        "Name": "台北君悅酒店",
        "City": "臺北市",
        "District": "信義區",
        "Address":"110臺北市信義區松壽路2號",
        "Tel":"02-27201234",
        "Price":"NT$16000~120000",
        "Lat": 25.035576821162742,  
        "Lng": 121.56265621195745
    },
    {
        "Name": "台南大員皇冠假日酒店",
        "City": "臺南市",
        "District": "安平區",
        "Address":"708臺南市安平區州平路289號",
        "Tel":"06-3911899",
        "Price":"NT$13000~108000",
        "Lat": 22.999458196846096,
        "Lng": 120.14896752725578
    },
    {
        "Name": "美侖大飯店",
        "City": "花蓮縣",
        "District": "花蓮市",
        "Address":"970花蓮縣花蓮市美崙區林園1之1號",
        "Tel":"03-8222111",
        "Price":"NT$9680~19800",
        "Lat": 24.0385947010433,  
        "Lng": 121.61350443723315
    },
    {
        "Name": "台北寒舍喜來登大飯店",
        "City": "臺北市",
        "District": "中正區",
        "Address":"100臺北市中正區忠孝東路1段12號",
        "Tel":"02-23215511",
        "Price":"NT$12000~188000",
        "Lat": 25.044796565623614,  
        "Lng": 121.52209716963026
    },
    {
        "Name": "福容大飯店 淡水漁人碼頭",
        "City": "新北市",
        "District": "淡水區",
        "Address":"251新北市淡水區觀海路83號",
        "Tel":"02-26287777",
        "Price":"NT$9800~68800",
        "Lat": 25.182073912362046,  
        "Lng": 121.4158905407973
    },
    {
        "Name": "裕元花園酒店",
        "City": "臺中市",
        "District": "西屯區",
        "Address":"407臺中市西屯區台灣大道四段610號(台中港路3段78-3號)",
        "Tel":"04-24656555",
        "Price":"NT$0~88000",
        "Lat": 24.179912634637585, 
        "Lng": 120.62400178124653
    },
    {
        "Name": "漢來大飯店",
        "City": "高雄市",
        "District": "前金區",
        "Address":"801高雄市前金區成功一路266號1樓、2樓、10-13樓、15-19樓、22-42樓",
        "Tel":"07-2161766",
        "Price":"NT$9600~200000",
        "Lat": 22.619614338629347,
        "Lng": 120.29673432724759
    },
    {
        "Name": "台北君品大酒店",
        "City": "臺北市",
        "District": "大同區",
        "Address":"103臺北市大同區承德路1段3號(1樓.5樓~16樓及地下1樓.地下3樓)",
        "Tel":"02-21819999",
        "Price":"NT$13000~323400",
        "Lat": 25.07952518832448, 
        "Lng": 121.51498000449003
    },
    {
        "Name": "高雄國賓大飯店",
        "City": "高雄市",
        "District": "前金區",
        "Address":"801高雄市前金區民生二路202號",
        "Tel":"07-211-5211",
        "Price":"NT$6500~68000",
        "Lat": 22.635940712041684, 
        "Lng": 120.29837123198634
    },
    {
        "Name": "清新溫泉飯店",
        "City": "臺中市",
        "District": "烏日區",
        "Address":"414臺中市烏日區溫泉路2號",
        "Tel":"04-23829888",
        "Price":"NT$12000~58000",
        "Lat": 24.137147430582274, 
        "Lng": 120.58855959288245
    },
    {
        "Name": "維多麗亞酒店",
        "City": "臺北市",
        "District": "中山區",
        "Address":"104臺北市中山區敬業四路168號",
        "Tel":"02-85020007",
        "Price":"NT$11550~23100",
        "Lat": 25.084266572729142, 
        "Lng": 121.55898671531735
    },
    {
        "Name": "圓山大飯店",
        "City": "臺北市",
        "District": "中山區",
        "Address":"104臺北市中山區中山北路4段1巷1號",
        "Tel":"02-28868888",
        "Price":"NT$8800~36000",
        "Lat": 25.079005781432844, 
        "Lng": 121.52651091777693
    },
    {
        "Name": "義大皇家酒店",
        "City": "高雄市",
        "District": "大樹區",
        "Address":"840高雄市大樹區三和村學城路1段153號",
        "Tel":"07-6568111",
        "Price":"NT$10000~200000",
        "Lat": 22.813374796132035,  
        "Lng": 120.39594038718866
    },
    {
        "Name": "新竹國賓大飯店",
        "City": "新竹市",
        "District": "東區",
        "Address":"300新竹市東區中華路2段188號",
        "Tel":"03-5151111",
        "Price":"NT$10000~105000",
        "Lat": 25.136109539744783, 
        "Lng": 120.93431993530744
    },
    {
        "Name": "雲品溫泉酒店日月潭",
        "City": "南投縣",
        "District": "魚池鄉",
        "Address":"555南投縣魚池鄉水社村中正路23號",
        "Tel":"049-2856788",
        "Price":"NT$26334~297990",
        "Lat": 23.871190394648966,  
        "Lng": 120.92350511193007
    },
    {
        "Name": "台北萬豪酒店",
        "City": "臺北市",
        "District": "中山區",
        "Address":"104臺北市中山區樂群二路199號",
        "Tel":"02-85029999",
        "Price":"NT$17000~200000",
        "Lat": 25.08060110639027, 
        "Lng": 121.55928169450333
    },  {
        "Name": "台中金典酒店",
        "City": "臺中市",
        "District": "西區",
        "Address":"403臺中市西區健行路1049號",
        "Tel":"04-23288000",
        "Price":"NT$8000~65000",
        "Lat": 24.20992895193922, 
        "Lng": 120.63835928680906
    },
    {
        "Name": "北投麗禧溫泉酒店",
        "City": "臺北市",
        "District": "北投區",
        "Address":"112臺北市北投區幽雅路30號",
        "Tel":"02-28988888",
        "Price":"NT$14000~35000",
        "Lat": 25.138045213737826,  
        "Lng": 121.51494708126941
    },
    {
        "Name": "寒軒國際大飯店",
        "City": "高雄市",
        "District": "苓雅區",
        "Address":"802高雄市苓雅區四維三路33號",
        "Tel":"NULL",
        "Price":"NT$6600~120000",
        "Lat": 22.619320031767355, 
        "Lng": 120.31076835633944
    },
    {
        "Name": "福華大飯店",
        "City": "臺北市",
        "District": "大安區",
        "Address":"106臺北市大安區仁愛路3段160號",
        "Tel":"02-2700-2323",
        "Price":"NT$9500~55000",
        "Lat": 25.03753451965255,  
        "Lng": 121.54296131026196
    },
    {
        "Name": "亞都麗緻大飯店",
        "City": "臺北市",
        "District": "中山區",
        "Address":"104臺北市中山區民權東路2段41號",
        "Tel":"02-25971234",
        "Price":"NT$12800~98000",
        "Lat": 25.063057031343547,  
        "Lng": 121.52995702544915
    },
    {
        "Name": "日月千禧酒店",
        "City": "臺中市",
        "District": "西屯區",
        "Address":"407臺中市西屯區市政路77號",
        "Tel":"04-37056000",
        "Price":"NT$20000~150000",
        "Lat": 24.156834920597888, 
        "Lng": 120.64206721795834
    },
    {
        "Name": "耐斯王子大飯店",
        "City": "嘉義市",
        "District": "東區",
        "Address":"600嘉義市東區忠孝路600號",
        "Tel":"05-2771999",
        "Price":"NT$6000~80000",
        "Lat": 23.496669676590184,  
        "Lng":  120.4524759314867
    },
    {
        "Name": "新竹喜來登大飯店",
        "City": "新竹縣",
        "District": "竹北市",
        "Address":"302新竹縣竹北市十興里光明六路東1段265號",
        "Tel":"03-6206000",
        "Price":"NT$14000~120000",
        "Lat": 24.820689465203284, 
        "Lng": 121.02799743893434
    },
    {
        "Name": "美麗信花園酒店",
        "City": "臺北市",
        "District": "中山區",
        "Address":"104臺北市中山區市民大道三段83號",
        "Tel":"02-87728800",
        "Price":"NT$9000~21000",
        "Lat": 25.04506671421312, 
        "Lng": 121.53727043312136
    }
]
  